施設・場所名,住所,緯度,経度
京都市立上賀茂小学校,京都府京都市北区上賀茂烏帽子ヶ垣内町1,35.05671792,135.7576444
京都市立大宮小学校,京都府京都市北区大宮中ノ社町37,35.05904166,135.7462922
京都市立紫竹小学校,京都府京都市北区紫竹下園生町26,35.05317639,135.7505997
京都市立元町小学校,京都府京都市北区小山西元町14,35.05033593,135.7541563
京都市立鳳徳小学校,京都府京都市北区紫野上鳥田町30,35.04517623,135.7522981
京都市立紫明小学校,京都府京都市北区小山東大野町55,35.04305168,135.7569455
京都市立紫野小学校,京都府京都市北区紫野下築山町21,35.03990958,135.7457044
京都市立大将軍小学校,京都府京都市北区大将軍南一条町48-2,35.02443061,135.7284799
京都市立衣笠小学校,京都府京都市北区平野宮本町19-6,35.03018619,135.7320032
京都市立金閣小学校,京都府京都市北区平野上柳町61-1,35.03662166,135.7283181
京都市立待鳳小学校,京都府京都市北区紫竹西北町1-3,35.04901642,135.7465148
京都市立柊野小学校,京都府京都市北区上賀茂女夫岩町21,35.06952295,135.7453445
京都市立加茂川中学校,京都府京都市北区紫竹上長目町5,35.05476036,135.7520072
京都市立旭丘中学校,京都府京都市北区紫野東蓮台野町1,35.04681588,135.7403043
京都市立衣笠中学校,京都府京都市北区衣笠衣笠山町2,35.03675104,135.7269209
京都市立西賀茂中学校,京都府京都市北区西賀茂円峰2-26,35.07067641,135.7398425
京都市立紫野高等学校,京都府京都市北区紫野大徳寺町22,35.04320295,135.7413378
京都府立盲学校小学部・中学部,京都府京都市北区紫野大徳寺町27,35.04417277,135.7388256
京都府立山城高等学校,京都府京都市北区大将軍坂田町29,35.0231198,135.7256797
京都府立医科大学花園学舎,京都府京都市北区大将軍西鷹司町13-2,35.02293672,135.7276881
立命館大学 京都衣笠体育館,京都府京都市北区等持院北町56-1,35.03258534,135.7243133
京都産業大学,京都府京都市北区上賀茂本山,35.06883804,135.7571825
大谷大学,京都府京都市北区小山上総町,35.04171572,135.7598479
京都教育大学附属京都小学校,京都府京都市北区紫野東御所田町37,35.04039687,135.754519
京都教育大学附属京都中学校,京都府京都市北区小山南大野町1,35.0397275,135.7552467
京都市交響楽団練習場,京都府京都市出雲路立テ本町103,35.03891363,135.7645238
元京都市立春日小学校,京都府京都市上京区丸太町通河原町西入高島町,35.01805243,135.7685347
元京都市立西陣小学校,京都府京都市上京区上立売堀川西入幸在町689,35.03242398,135.7498184
元京都市立聚楽小学校,京都府京都市上京区葭屋町通中立売下ル北俵町317,35.02441738,135.7510257
元京都市立待賢小学校,京都府京都市上京区猪熊通丸太町下ル藁屋町536-1,35.01716085,135.7499786
京都まなびの街生き方探究館,京都府京都市上京区西洞院通下立売下ル東裏辻町402,35.01959042,135.7545813
京都市立京極小学校,京都府京都市上京区寺町通石薬師下ル西側染殿町658,35.02765016,135.7673016
京都市立室町小学校,京都府京都市上京区室町通上立売上ル室町頭町261,35.03346523,135.7583868
京都市立新町小学校,京都府京都市上京区中立売通室町西入三丁町457,35.02526959,135.7560202
京都市立西陣中央小学校,京都府京都市上京区大宮通今出川上ル観世町135-1,35.0305486,135.7478752
京都市立翔鸞小学校,京都府京都市上京区御前通今出川上ル鳥居前町671,35.03192543,135.7382173
京都市立仁和小学校,京都府京都市上京区御前通一条下ル東竪町132-1,35.02565755,135.7368917
京都市立二条城北小学校,京都府京都市上京区浄福寺通下立売下ル中務町487,35.01915341,135.7453171
京都市立正親小学校,京都府京都市上京区浄福寺通中立売下ル菱丸町173,35.02443511,135.7459623
京都市立烏丸中学校,京都府京都市上京区烏丸通上立売上ル相国寺門前町647-23,35.03468575,135.7599446
京都市立上京中学校,京都府京都市上京区一条通室町西入東日野殿町395・396,35.02577948,135.7575615
京都市立二条中学校,京都府京都市上京区竹屋町通千本東入主税町911,35.01546083,135.7445964
京都市立みつば幼稚園,京都府京都市上京区小川通今出川下ル針屋町370,35.02915775,135.7539916
京都市立北総合支援学校,京都府京都市上京区堀川通寺之内上ル2丁目下天神町650-1,35.03535118,135.750674
京都府立鴨沂高等学校,京都府京都市上京区寺町通荒神口下ル松蔭町131,35.02071292,135.7680081
旧京都産業大学附属中学校・高等学校,京都府京都市上京区相国寺門前町709,35.03438968,135.7629101
京都市立錦林小学校,京都府京都市左京区岡崎入江町1-1,35.01812939,135.782411
京都市立第四錦林小学校,京都府京都市左京区吉田上阿達町15-2,35.02546612,135.7745802
元京都市立新洞小学校,京都府京都市左京区仁王門通新東洞院西入新東洞院町252,35.01238356,135.7748187
京都市立北白川小学校,京都府京都市左京区北白川別当町70,35.032025,135.7929364
京都市立養正小学校,京都府京都市左京区田中飛鳥井町1,35.03236389,135.77885
京都市立養徳小学校,京都府京都市左京区田中上大久保町24,35.03764898,135.7832325
京都市立下鴨小学校,京都府京都市左京区下鴨宮崎町4-2,35.03741256,135.7684622
京都市立葵小学校,京都府京都市左京区下鴨東梅ノ木町8,35.04550239,135.7732819
京都市立修学院小学校,京都府京都市左京区修学院沖殿町1,35.05298418,135.7943267
京都市立修学院第二小学校,京都府京都市左京区一乗寺里ノ西町35,35.04478349,135.7886697
京都市立上高野小学校,京都府京都市左京区上高野松田町8,35.06128283,135.7952581
京都市立松ヶ崎小学校,京都府京都市左京区松ヶ崎堀町40,35.05333076,135.7821715
京都市立明徳小学校,京都府京都市左京区岩倉忠在地町221,35.07523203,135.7866217
京都市立岩倉南小学校,京都府京都市左京区岩倉北四ノ坪町33,35.06732875,135.784992
京都市立岩倉北小学校,京都府京都市左京区岩倉忠在地町5,35.0856988,135.788484
京都市立市原野小学校,京都府京都市左京区静市野中町105,35.08985506,135.7646077
京都市立岡崎中学校,京都府京都市左京区岡崎東天王町1,35.01631929,135.7901172
京都市立高野中学校,京都府京都市左京区田中上古川町25,35.0399481,135.7831913
京都市立下鴨中学校,京都府京都市左京区下鴨泉川町40-1,35.03854076,135.7749431
京都市立近衛中学校,京都府京都市左京区吉田近衛町26-53,35.02176312,135.7798586
京都市立修学院中学校,京都府京都市左京区一乗寺御祭田町2,35.04245594,135.7885355
京都市立洛北中学校,京都府京都市左京区岩倉忠在地町823,35.0703703,135.787309
京都市武道センター,京都府京都市左京区聖護院円頓美町46-2,35.01699154,135.7807941
京都府立洛北高等学校,京都府京都市左京区下鴨梅ノ木町59,35.04654461,135.7714295
京都府立北稜高等学校,京都府京都市左京区岩倉幡枝町2105,35.07022496,135.773017
京都ノートルダム女子大学,京都府京都市左京区下鴨南野々神町1,35.05070445,135.7723571
京都精華大学,京都府京都市左京区岩倉木野町137,35.0731376,135.770978
同志社中学校・高等学校 南体育館,京都府京都市左京区岩倉大鷺町89,35.06681333,135.7861404
京都工芸繊維大学,京都府京都市左京区松ヶ崎橋上町,35.05004017,135.782933
元京都市立生祥小学校,京都府京都市中京区富小路通六角下ル骨屋之町549,35.00679155,135.7652977
元京都市立教業小学校,京都府京都市中京区大宮通御池下ル三坊大宮町121-2,35.00991211,135.7481762
元京都市立立誠小学校,京都府京都市中京区蛸薬師通河原町東入備前島町310-2,35.00597373,135.7702898
京都市教育相談総合センター,京都府京都市中京区姉小路通東洞院東入曇華院前町706-3,35.00962752,135.7617083
京都市立御所南小学校,京都府京都市中京区柳馬場通夷川上ル五町目242,35.01596341,135.7644781
京都市立高倉小学校,京都府京都市中京区高倉通六角下ル和久屋町343,35.00662181,135.762103
京都市立洛中小学校,京都府京都市中京区壬生坊城町57-1,35.00598501,135.7473804
京都市立朱雀第一小学校,京都府京都市中京区壬生朱雀町8-2,35.00706829,135.7438009
京都市立朱雀第二小学校,京都府京都市中京区西ノ京左馬寮町3-1,35.01788369,135.7367832
京都市立朱雀第三小学校,京都府京都市中京区壬生松原町81,34.99846436,135.7398885
京都市立朱雀第四小学校,京都府京都市中京区西ノ京笠殿町164,35.01400682,135.7343343
京都市立朱雀第六小学校,京都府京都市中京区西ノ京車坂町15-5,35.01684913,135.7384754
京都市立朱雀第七小学校,京都府京都市中京区壬生東土居ノ内町20,35.00303159,135.7354342
京都市立朱雀第八小学校,京都府京都市中京区西ノ京中御門西町25,35.01688652,135.7288104
京都市立京都御池中学校,京都府京都市中京区柳馬場通御池上ル虎石町45-3,35.01177159,135.7642554
京都市立朱雀中学校,京都府京都市中京区壬生中川町20-1,35.00701218,135.7364981
京都市立中京中学校,京都府京都市中京区西ノ京北聖町51,35.01292701,135.7436254
京都市立北野中学校,京都府京都市中京区西ノ京中保町1-4,35.02177559,135.7314322
京都市立松原中学校,京都府京都市中京区壬生相合町1,34.99988744,135.7478026
京都市立西ノ京中学校,京都府京都市中京区西ノ京永本町7-1,35.01264409,135.7381984
京都市立堀川高等学校,京都府京都市中京区東堀川通錦小路上ル四坊堀川町622-2,35.00576198,135.7522322
京都市立西京高等学校,京都府京都市中京区西ノ京東中合町1,35.01173955,135.7308585
京都市立銅駝美術工芸高等学校,京都府京都市中京区土手町通竹屋町下ル鉾田町542,35.01483846,135.7701205
京都市生涯学習総合センター,京都府京都市中京区聚楽廻松下町9-2,35.01897806,135.7384435
京都国際マンガミュージアム,京都府京都市中京区烏丸通御池上ル金吹町452,35.01168374,135.7589538
京都芸術センター,京都府京都市中京区室町通蛸薬師下ル山伏山町546-2,35.00544166,135.7583892
京都市男女共同参画センター,京都府京都市中京区東洞院通六角下ル御射山町262,35.00686283,135.7614005
京都府立朱雀高等学校,京都府京都市中京区西ノ京式部町1,35.01419163,135.745057
花園大学,京都府京都市中京区西ノ京壺ノ内町8-1,35.01705813,135.725948
洛陽総合高等学校,京都府京都市中京区西ノ京春日町8,35.01761427,135.7277629
京都両洋高等学校,京都府京都市中京区壬生上大竹町13,35.00781105,135.7339733
京都市立京都堀川音楽高等学校,京都府京都市中京区油小路通御池押油小路町238-1,35.011932,135.752765
京都市こどもみらい館,京都府京都市中京区間之町通竹屋町下ル楠町601-1,35.0155273,135.7612184
京都市立中京もえぎ幼稚園,京都府京都市中京区間之町通竹屋町下ル楠町601-1,35.0155273,135.7612184
京都市子ども保健医療相談・事故防止センター「京（みやこ）あんしんこども館」,京都府京都市中京区釜座通丸太町上ル梅屋町174-3,35.01781037,135.7558799
職員会館かもがわ,京都府京都市中京区土手町通夷川上ル末丸町284,35.01564944,135.7708119
京都市立堀川高等学校本能館及び本能自治会館,京都府京都市中京区元本能寺南町３４６,35.00575178,135.7539022
元京都市立有済小学校,京都府京都市東山区大和大路通三条下ル東入若松町393,35.00769998,135.7738047
元京都市立白川小学校,京都府京都市東山区三条通白川橋東入三丁目夷町175-2,35.00882071,135.783611
元京都市立新道小学校,京都府京都市東山区大和大路通四条下ル四丁目小松町130,34.99960123,135.7717198
元京都市立月輪小学校,京都府京都市東山区本町通三ノ橋上ル本町十七丁目358,34.9778093,135.7716278
京都市立開睛小・中学校,京都府京都市東山区六波羅裏門通東入多門町155,34.996241,135.774162
京都市立日吉ケ丘高等学校,京都府京都市東山区今熊野悲田院山町5-22,34.97875046,135.7755043
京都府立陶工高等技術専門校,京都府京都市東山区今熊野阿弥陀ヶ峰町17-2,34.99072691,135.7819913
大谷中学校・大谷高等学校,京都府京都市東山区今熊野池田町12,34.98413122,135.7719502
京都市立白河総合支援学校東山分校,京都府京都市東山区東大路渋谷下ル妙法院前側町441,34.99201268,135.7756398
京都市立東山泉小中学校 東学舎,京都府京都市東山区泉涌寺山内町5,34.97963903,135.7782509
華頂女子高等学校,京都府京都市東山区林下町3-456,35.0068558,135.7807445
京都女子中・高等学校,京都府京都市東山区今熊野北日吉町17,34.99009621,135.7770175
知恩院 和順会館,京都府京都市東山区林下町400-2,35.00456153,135.7803668
妙法院,京都府京都市東山区妙法院前側町447,34.9904045,135.7755621
大谷本廟,京都府京都市東山区五条橋東六丁目514,34.99342088,135.777234
東福寺,京都府京都市東山区本町十五丁目778,34.9767345,135.7742716
立正佼成会 京都教会,京都府京都市東山区三条白川橋東入ル5丁目東町230,35.00988889,135.7859412
京都華頂大学・華頂短期大学(７号館 体育館),京都府京都市東山区林下町3-456,35.00680356,135.779876
京都市立東山泉小中学校 西学舎,京都府京都市東山区大和大路通七条下ル5丁目下池田町527,34.98393285,135.7707961
弥栄自治会館,京都府京都市東山区祇園町南側,35.0032,135.77691
京都市立山階小学校,京都府京都市山科区西野大手先町21,34.98334041,135.8131355
京都市立鏡山小学校,京都府京都市山科区御陵血洗町18,34.99079852,135.8063132
京都市立音羽小学校,京都府京都市山科区音羽森廻り町32,34.98593835,135.8253539
京都市立勧修小学校,京都府京都市山科区勧修寺東栗栖野町42,34.97021697,135.8083147
京都市立安朱小学校,京都府京都市山科区安朱山川町17,34.99615224,135.8182357
京都市立山階南小学校,京都府京都市山科区東野八代10,34.97738655,135.8078332
京都市立陵ケ岡小学校,京都府京都市山科区御陵岡町45,34.99262652,135.8030005
京都市立大宅小学校,京都府京都市山科区大宅五反畑町69-2,34.97417966,135.8238936
京都市立百々小学校,京都府京都市山科区西野山百々町173-1,34.97689968,135.7961774
京都市立大塚小学校,京都府京都市山科区大塚野溝町59,34.98302524,135.8299903
京都市立音羽川小学校,京都府京都市山科区音羽西林36,34.98282343,135.8209175
京都市立小野小学校,京都府京都市山科区小野蚊ヶ瀬町2,34.96333347,135.8117661
京都市立西野小学校,京都府京都市山科区西野櫃川町34,34.98216717,135.8033864
京都市立山科中学校,京都府京都市山科区東野八反畑町50-1,34.97695862,135.8103557
京都市立音羽中学校,京都府京都市山科区大塚野溝町86,34.98286966,135.8284027
京都市立花山中学校,京都府京都市山科区北花山横田町27-1,34.9892649,135.8028162
京都市立安祥寺中学校,京都府京都市山科区西野今屋敷町9-6,34.98597074,135.8128482
京都市立勧修中学校,京都府京都市山科区勧修寺平田町92,34.9662452,135.8120351
京都市立大宅中学校,京都府京都市山科区大宅山田113,34.96705161,135.8215615
京都市立東総合支援学校,京都府京都市山科区大塚高岩3,34.97890683,135.8317893
山科地域体育館,京都府京都市山科区椥辻西浦町1-12,34.9769072,135.8136837
京都市生涯学習総合センター山科,京都府京都市山科区竹鼻竹ノ街道町92 ラクト山科C棟2階,34.99009606,135.8176434
京都府立洛東高等学校,京都府京都市山科区安朱川向町10,34.99683102,135.8170773
一燈園小学校・中学校・高等学校,京都府京都市山科区四ノ宮柳山町29,34.99559108,135.8285934
京都薬科大学,京都府京都府京都市山科区御陵中内町5,34.99111628,135.8092223
京都橘大学,京都府京都市山科区大宅山田町34,34.96853602,135.8261287
本願寺山科別院,京都府京都市山科区東野狐藪町2,34.9834139,135.8153726
東本願寺山科別院長福寺,京都府京都市山科区竹鼻サイカシ町13-17,34.98576158,135.8142605
デイサービス 小鳥のさえずり しらかば苑,京都府京都市山科区厨子奥花鳥町1-144,35.00165345,135.7919187
元京都市立格致小学校,京都府京都市下京区高辻通堀川東入西高辻町,35.00062639,135.7533376
元京都市立有隣小学校,京都府京都市下京区富小路通五条上ル本神明町,34.99715108,135.7643848
京都市学校歴史博物館,京都府京都市下京区御幸町通仏光寺下ル橘町437,35.00073658,135.7659172
元京都市立安寧小学校,京都府京都市下京区東堀川通木津屋橋下ル御方紺屋町1,34.987504,135.7525683
京都市立淳風小学校,京都府京都市下京区大宮通花屋町上ル柿本町609-1,34.99329272,135.7495406
京都市立醒泉小学校,京都府京都市下京区醒ヶ井通松原下ル篠屋町59,34.99818599,135.7528798
京都市立洛央小学校,京都府京都市下京区仏光寺通東洞院東入仏光寺西町345-1,35.00170189,135.7617556
元京都市立植柳小学校,京都府京都市下京区西洞院通花屋町下ル西洞院町466,34.99216892,135.7547831
元京都市立六条院小学校,京都府京都市下京区河原町通上枳殻馬場上ル若松町420,34.99279301,135.7629521
京都市立梅小路小学校,京都府京都市下京区観喜寺町3,34.98827377,135.7451614
京都市立七条小学校,京都府京都市下京区西七条石井町61,34.98717357,135.735116
京都市立七条第三小学校,京都府京都市下京区西七条西石ヶ坪町5,34.99319523,135.7331854
元京都市立崇仁小学校,京都府京都市下京区川端町16,34.98664326,135.766962
京都市立西大路小学校,京都府京都市下京区七条御所ノ内西町71-1,34.9871525,135.7278315
京都市立光徳小学校,京都府京都市下京区中堂寺坊城町26-1,34.99728192,135.744011
京都市立洛友中学校(元郁文中学校),京都府京都市下京区大宮通綾小路下ル綾大宮町51-2,35.00187657,135.7486896
元京都市立梅逕中学校,京都府京都市下京区大宮通八条上ル三丁目東側垣ケ内町248,34.98645351,135.7494457
京都市立七条中学校,京都府京都市下京区西七条御領町32,34.99142597,135.7377211
下京地域体育館,京都府京都市下京区川端町13,34.98640137,135.7662933
京都市総合教育センター,京都府京都市下京区河原町通松原上ル二丁目富永町344,35.00223113,135.7680559
京都市修徳特別養護老人ホーム,京都府京都市下京区新町通松原下ル富永町110-1,34.99797934,135.7569249
ひと・まち交流館 京都,京都府京都市下京区西木屋町通上ノ口上ル梅湊町83-1,34.99322865,135.7651094
京都市立下京中学校,京都府京都市下京区楊梅通新町東入蛭子町120-1,34.99524222,135.7572522
京都市立下京中学校成徳学舎,京都府京都市下京区高辻通室町西入繁昌町290,34.999999,135.757445
京都市立下京渉成小学校,京都府京都市下京区皆山町438-1,34.9900678,135.7623209
池坊学園,京都府京都市下京区室町通四条下ル鶏鉾町491,35.00305103,135.7579273
龍谷大学付属 平安中学校・平安高等学校,京都府京都市下京区御器屋町30,34.9901847,135.7483592
京都産業大学附属中学校・高等学校,京都府京都市下京区中堂寺命婦町1-10,34.99792017,135.7445288
京都市立九条弘道小学校,京都府京都市南区西九条春日町13,34.98105584,135.754696
京都市立九条塔南小学校,京都府京都市南区西九条御幸田町109,34.97597371,135.7484903
京都市立南大内小学校,京都府京都市南区八条内田町20-2,34.98057266,135.7444296
京都市立唐橋小学校,京都府京都市南区唐橋西寺町65,34.97992905,135.7380182
元京都市立陶化小学校,京都府京都市南区東九条中御霊町55,34.97863614,135.7625606
元京都市立東和小学校(凌風小中学校第２校舎),京都府京都市南区東九条南烏丸町19,34.97813556,135.7589939
元京都市立山王小学校,京都府京都市南区東九条東山王町27,34.98287473,135.7620261
京都市立吉祥院小学校,京都府京都市南区吉祥院船戸町34,34.97486555,135.7325559
京都市立祥豊小学校,京都府京都市南区吉祥院三ノ宮町23,34.97754398,135.7275565
京都市立上鳥羽小学校,京都府京都市南区上鳥羽城ヶ前町16,34.96390444,135.7431686
京都市立大藪小学校,京都府京都市南区久世大藪町62,34.96023266,135.718607
京都市立祥栄小学校,京都府京都市南区吉祥院蒔絵町14,34.96766162,135.7369818
京都市立久世西小学校,京都府京都市南区久世上久世町454,34.96304998,135.7143701
京都市立八条中学校,京都府京都市南区唐橋門脇町35,34.98267562,135.7386293
京都市立九条中学校,京都府京都市南区西九条南小路町1,34.9808772,135.7502029
京都市立洛南中学校,京都府京都市南区吉祥院落合町31,34.97429515,135.7386236
京都市立凌風小・中学校,京都府京都市南区東九条下殿田町56,34.97852194,135.7574598
京都市立久世中学校,京都府京都市南区久世殿城町481-1,34.95667369,135.7189413
京都市立洛陽工業高等学校,京都府京都市南区唐橋大宮尻町22,34.98029411,135.7351783
京都市立塔南高等学校,京都府京都市南区吉祥院観音堂町41,34.96766171,135.7339214
京都府立鳥羽高等学校,京都府京都市南区西九条大国町1,34.97795125,135.7445077
洛南高等学校・洛南高等学校附属中学校,京都府京都市南区壬生通八条下ル東寺町559,34.98284843,135.7468764
京都市立梅津小学校,京都府京都市右京区梅津中村町38,35.00142466,135.6999424
京都市立梅津北小学校,京都府京都市右京区梅津開キ町16,35.00621453,135.7002731
京都市立太秦小学校,京都府京都市右京区太秦奥殿町1-1,35.01250895,135.7070716
京都市立南太秦小学校,京都府京都市右京区太秦前ノ田町22,35.00952232,135.7033323
京都市立常磐野小学校,京都府京都市右京区太秦京ノ道町20-5,35.02213859,135.7028742
京都市立嵯峨野小学校,京都府京都市右京区嵯峨野千代ノ道町53,35.01222424,135.696132
京都市立西京極小学校,京都府京都市右京区西京極芝ノ下町31,34.9874771,135.7193507
京都市立西京極西小学校,京都府京都市右京区西京極藪開町4-1,34.9862409,135.7161277
京都市立葛野小学校,京都府京都市右京区西京極葛野町2,34.99850129,135.71803
京都市立山ノ内小学校,京都府京都市右京区山ノ内山ノ下町22,35.00565557,135.7218404
京都市立嵯峨小学校,京都府京都市右京区嵯峨釈迦堂大門町35-1,35.02108011,135.676545
京都市立御室小学校,京都府京都市右京区御室竪町19,35.02702831,135.7167069
京都市立宇多野小学校,京都府京都市右京区宇多野上ノ谷8,35.03128324,135.7092799
京都市立西院小学校,京都府京都市右京区西院春日町3-1,35.00561942,135.7293751
京都市立安井小学校,京都府京都市右京区太秦安井柳通町15,35.01447258,135.7203562
京都市立嵐山小学校,京都府京都市右京区嵯峨柳田町35-1,35.013426,135.6866354
京都市立花園小学校,京都府京都市右京区花園車道町1,35.01904418,135.7220378
京都市立四条中学校,京都府京都市右京区西院日照町1,35.003031,135.7244349
京都市立西院中学校,京都府京都市右京区西院矢掛町5,34.99978571,135.7292401
京都市立梅津中学校,京都府京都市右京区梅津北川町34,35.00606689,135.6976286
京都市立双ヶ丘中学校,京都府京都市右京区花園岡ノ本町5-1,35.02292744,135.7155052
京都市立蜂ヶ岡中学校,京都府京都市右京区嵯峨野開町1-1,35.01642091,135.6984036
京都市立太秦中学校,京都府京都市右京区太秦多藪町14-144,35.01189264,135.7038494
京都市立西京極中学校,京都府京都市右京区西京極宮ノ東町1,34.99065207,135.7230754
京都市立鳴滝総合支援学校,京都府京都市右京区音戸山山ノ茶屋町9-2,35.02810923,135.7040772
京都市立周山中学校,京都府京都市右京区京北周山町中山39-4,35.1576586,135.635545
旧京北町立黒田小学校,京都府京都市右京区京北宮町宮野54,35.20373914,135.7197899
京都市立京北第二小学校,京都府京都市右京区京北塔町中筋浦8-1,35.18040186,135.6620181
京都市立京北第三小学校,京都府京都市右京区京北上弓削町弾正27,35.20282793,135.639108
京都市立京北第一小学校,京都府京都市右京区京北周山町下寺田11,35.15563601,135.6350873
旧京北町立宇津小学校,京都府京都市右京区京北中地町蛸谷口12,35.13974799,135.5926378
京都市市民スポーツ会館,京都府京都市右京区西京極新明町32,34.99512278,135.715566
京都光華女子大学・京都光華女子大学短期大学部,京都府京都市右京区西京極葛野町38,34.9968807,135.7186483
光華小学校・京都光華中学校・京都光華高等学校,京都府京都市右京区西京極野田町39,34.99570679,135.7184465
花園高等学校,京都府京都市右京区花園木辻北町1,35.02171878,135.7226053
京都外国語大学,京都府京都市右京区西院笠目町6,35.00423364,135.7187673
京都嵯峨芸術大学・京都嵯峨芸術大学短期大学部,京都府京都市右京区嵯峨五島町1,35.01271257,135.6883124
仁和寺(御室会館),京都府京都市右京区御室大内33,35.0288058,135.7152022
妙心寺,京都府京都市右京区花園妙心寺町64,35.0231648,135.7200389
大覚寺(嵯峨寮，学院),京都府京都市右京区嵯峨大沢町4,35.02782759,135.6775468
黒田基幹集落センター,京都府京都市右京区京北宮町宮野80-1,35.20420634,135.7196198
山国自治会館,京都府京都市右京区京北比賀江町院谷21,35.18244648,135.6622147
田貫公民館,京都府京都市右京区京北田貫町檀町20,35.20666189,135.6044332
弓削会館,京都府京都市右京区京北下中町東石原8-2,35.19705263,135.6393695
矢代多目的ホール,京都府京都市右京区京北矢代中町馬場谷道ノ上29-12,35.18154829,135.6003358
旧京北ふれあいセンター,京都府京都市右京区京北周山町高梨子12,35.15689326,135.6353248
宇津ふれあい会館,京都府京都市右京区京北中地町蛸谷口23,35.13895102,135.5914773
宇津コミュニティセンター,京都府京都市右京区京北下宇津町宮ノ下１４－２,35.1460168,135.5786759
黒田トレーニングホール,京都府京都市右京区京北宮町宮野80-1,35.20420634,135.7196198
京都市立嵐山東小学校,京都府京都市西京区嵐山東海道町46,35.00729738,135.6864295
京都市立松尾小学校,京都府京都市西京区松尾井戸町32,34.9924695,135.6893131
京都市立松陽小学校,京都府京都市西京区御陵北山下町15,34.98139139,135.6893756
京都市立桂川小学校,京都府京都市西京区桂上野西町274,34.99495404,135.6999949
京都市立桂小学校,京都府京都市西京区桂巽町75-5,34.98250176,135.7006182
京都市立桂徳小学校,京都府京都市西京区桂徳大寺南町2,34.98916441,135.7061006
京都市立桂東小学校,京都府京都市西京区桂市ノ前町31,34.97779838,135.7076704
京都市立川岡小学校,京都府京都市西京区川島滑樋町14,34.97565226,135.7036987
京都市立川岡東小学校,京都府京都市西京区下津林東大般若町44,34.97562056,135.7149344
京都市立樫原小学校,京都府京都市西京区樫原三宅町24,34.97259969,135.697408
京都市立大原野小学校,京都府京都市西京区大原野灰方町439,34.95355305,135.6669494
京都市立上里小学校,京都府京都市西京区大原野上里南ノ町300,34.95230584,135.6849849
京都市立松尾中学校,京都府京都市西京区松室中溝町101,34.99713453,135.6907651
京都市立桂中学校,京都府京都市西京区上桂森上町26,34.98877187,135.6944369
京都市立桂川中学校,京都府京都市西京区下津林東大般若町43,34.97621894,135.7152315
京都市立樫原中学校,京都府京都市西京区樫原蛸田町11,34.97664336,135.6908343
京都市立大原野中学校,京都府京都市西京区大原野上里南ノ町18,34.95204228,135.6776775
京都市西文化会館ウエスティ,京都府京都市西京区上桂森下町31-1,34.98501611,135.694201
京都府立桂高等学校,京都府京都市西京区川島松ノ木本町27,34.97229155,135.7055419
法輪寺,京都府京都市西京区嵐山虚空蔵山町68,35.01023829,135.6769755
京都市立伏見板橋小学校,京都府京都市伏見区下板橋町610,34.93878778,135.7616792
京都市立伏見南浜小学校,京都府京都市伏見区丹後町142,34.9290587,135.7626777
京都市立伏見住吉小学校,京都府京都市伏見区住吉町455,34.94366622,135.7621857
京都市立深草小学校,京都府京都市伏見区深草西伊達町82-3,34.95582017,135.7722703
京都市立藤ノ森小学校,京都府京都市伏見区深草石橋町11-2,34.94867344,135.7703616
京都市立砂川小学校,京都府京都市伏見区深草ケナサ町25-5,34.96414811,135.7695929
京都市立竹田小学校,京都府京都市伏見区竹田桶ノ井町8-2,34.95494192,135.7569478
京都市立桃山小学校,京都府京都市伏見区桃山町本多上野107,34.93290331,135.7753727
京都市立桃山東小学校,京都府京都市伏見区桃山町伊庭12,34.93554273,135.7868669
京都市立桃山南小学校,京都府京都市伏見区桃山町大島38-109,34.92640282,135.788485
京都市立下鳥羽小学校,京都府京都市伏見区下鳥羽長田町203,34.93939,135.7439743
京都市立横大路小学校,京都府京都市伏見区横大路草津町54-1,34.92813017,135.734365
京都市立納所小学校,京都府京都市伏見区納所妙徳寺1,34.9095809,135.7196695
京都市立向島小学校,京都府京都市伏見区向島善阿弥町2-3,34.92685097,135.771375
京都市立向島藤の木小学校,京都府京都市伏見区向島藤ノ木町82-5,34.92042725,135.7803541
京都市立向島南小学校,京都府京都市伏見区向島津田町95-1,34.92338218,135.7655245
京都市立向島二の丸小学校,京都府京都市伏見区向島二ノ丸町151,34.91632857,135.7738683
京都市立二の丸北小学校,京都府京都市伏見区向島二ノ丸町300,34.91879059,135.7692071
京都市立小栗栖小学校,京都府京都市伏見区小栗栖森本町47-4,34.94272508,135.7980466
京都市立小栗栖宮山小学校,京都府京都市伏見区小栗栖宮山1-1,34.94567903,135.799283
京都市立池田小学校,京都府京都市伏見区醍醐鍵尾町17,34.9461168,135.80771
京都市立池田東小学校,京都府京都市伏見区醍醐多近田町2-2,34.94475274,135.812183
京都市立春日野小学校,京都府京都市伏見区日野田中町31,34.93876331,135.8123058
京都市立日野小学校,京都府京都市伏見区日野谷寺町78,34.93856788,135.8161433
京都市立石田小学校,京都府京都市伏見区石田森西24,34.94074997,135.8010722
京都市立醍醐西小学校,京都府京都市伏見区醍醐川久保町1,34.95292151,135.8118961
京都市立神川小学校,京都府京都市伏見区久我東町60-2,34.9384004,135.7327757
京都市立久我の杜小学校,京都府京都市伏見区久我東町209,34.93322824,135.7293887
京都市立羽束師小学校,京都府京都市伏見区羽束師菱川町640,34.93301134,135.7221194
京都市立明親小学校,京都府京都市伏見区淀池上町106,34.90343806,135.721653
京都市立美豆小学校,京都府京都市伏見区淀美豆町1244,34.89723244,135.7129416
京都市立深草中学校,京都府京都市伏見区深草西伊達町1-4,34.9573442,135.7745381
京都市立藤森中学校,京都府京都市伏見区深草池ノ内町55,34.95540085,135.765007
京都市立伏見中学校,京都府京都市伏見区御駕籠町97,34.93848956,135.7603904
京都市立神川中学校,京都府京都市伏見区羽束師菱川町741,34.93246405,135.722079
京都市立醍醐中学校,京都府京都市伏見区醍醐岸ノ上町21,34.94362258,135.8150192
京都市立春日丘中学校,京都府京都市伏見区日野谷寺町50,34.93921707,135.8178992
京都市立小栗栖中学校,京都府京都市伏見区石田川向43,34.94155346,135.7982262
京都市立栗陵中学校,京都府京都市伏見区醍醐池田町17-1,34.94660647,135.8078115
京都市立桃陵中学校,京都府京都市伏見区桃陵町1-1,34.92850692,135.7663627
京都市立向島中学校,京都府京都市伏見区向島二ノ丸町151-55,34.91715193,135.7748118
京都市立向島東中学校,京都府京都市伏見区向島吹田河原町138,34.92569461,135.7778263
京都市立大淀中学校,京都府京都市伏見区淀下津町257-7,34.9019179,135.7235943
京都市立洛水中学校,京都府京都市伏見区横大路竜ヶ池31,34.92054907,135.7304749
京都市立伏見工業高等学校,京都府京都市伏見区深草鈴塚町13,34.96975235,135.7647718
京都府立伏見港公園総合体育館,京都府京都市伏見区葭島金井戸町,34.92528699,135.7578372
種智院大学,京都府京都市伏見区向島西定請70,34.91399686,135.7658129
龍谷大学,京都府京都市伏見区深草塚本町67,34.96394591,135.7666202
京都教育大学附属高等学校,京都府京都市伏見区深草越後屋敷町111,34.95083614,135.7652825
天理教淀分教会,京都府京都市伏見区納所町223,34.90872629,135.7179346
京都府立消防学校,京都府八幡市八幡樋ノ口15番地の15,34.88826233,135.7211184